"adminCode1","lng","geonameId","toponymName","countryId","fcl","population","countryCode","name","fclName","adminCodes1.ISO3166_2","countryName","fcodeName","adminName1","lat","fcode","Village","Departement","District"
"","","","","","","","","","","","","","","","","","",""
"30","23.54554","203444","Yetefela","203312","P","0","CD","Yetefela","city, village,...","TO","DR Congo","populated place","Tshopo","-0.33399","PPL","Yeleyele","Likouala","Liranga"
"31","23.2","203477","Yemelese","203312","P","0","CD","Yemelese","city, village,...","TU","DR Congo","populated place","Tshuapa","-1.66667","PPL","Yeleyele","Likouala","Liranga"
"18","21.8","203506","Yeke-Yeke","203312","P","0","CD","Yeke-Yeke","city, village,...","KS","DR Congo","populated place","Kasai","-2.55","PPL","Yeleyele","Likouala","Liranga"
"13","23.95948","8239195","Yekuyale","203312","P","0","CD","Yekuyale","city, village,...","BU","DR Congo","populated place","Bas-Uele","4.5171","PPL","Yeleyele","Likouala","Liranga"
"21","25.55718","206948","Nogo","203312","P","0","CD","Nogo","city, village,...","LO","DR Congo","populated place","Lomami","-5.13659","PPL","Nongo","Likouala","Liranga"
"31","23.51667","206939","Nongu","203312","P","0","CD","Nongu","city, village,...","TU","DR Congo","populated place","Tshuapa","-1.31667","PPL","Nongo","Likouala","Liranga"
"31","21.8","206949","Nongo","203312","P","0","CD","Nongo","city, village,...","TU","DR Congo","populated place","Tshuapa","-2.26667","PPL","Nongo","Likouala","Liranga"
"31","23.98441","206950","Nongo","203312","P","0","CD","Nongo","city, village,...","TU","DR Congo","populated place","Tshuapa","-1.41028","PPL","Nongo","Likouala","Liranga"
"31","20.59238","206951","Nongo","203312","P","0","CD","Nongo","city, village,...","TU","DR Congo","populated place","Tshuapa","-1.19708","PPL","Nongo","Likouala","Liranga"
"31","22.66667","206952","Nongo","203312","P","0","CD","Nongo","city, village,...","TU","DR Congo","populated place","Tshuapa","-0.86667","PPL","Nongo","Likouala","Liranga"
"13","25.05993","8242783","Nongo","203312","P","0","CD","Nongo","city, village,...","BU","DR Congo","populated place","Bas-Uele","4.21609","PPL","Nongo","Likouala","Liranga"
"08","14.62762","8325709","Nongo","203312","P","0","CD","Nongo","city, village,...","BC","DR Congo","populated place","Bas-Congo","-5.82605","PPL","Nongo","Likouala","Liranga"
"31","21.98333","206942","Nongooka","203312","P","0","CD","Nongooka","city, village,...","TU","DR Congo","populated place","Tshuapa","-0.6","PPL","Nongo","Likouala","Liranga"
"31","22.21667","208720","Mongo","203312","P","0","CD","Mongo","city, village,...","TU","DR Congo","populated place","Tshuapa","-1","PPL","Nongo","Likouala","Liranga"
"29","27.22381","206958","Nonga","203312","P","0","CD","Nonga","city, village,...","TA","DR Congo","populated place","Tanganyika","-5.25129","PPL","Nongo","Likouala","Liranga"
"14","28.54803","206959","Nondo","203312","P","0","CD","Nondo","city, village,...","HK","DR Congo","populated place","Haut-Katanga","-7.875","PPL","Nongo","Likouala","Liranga"
"20","19.86074","2311974","Nianga-Kikoso","203312","P","0","CD","Nianga-Kikoso","city, village,...","KL","DR Congo","populated place","Kwilu","-5.79988","PPL","Nianga Kake","Likouala","Dongou"
"20","19.87481","8276576","Nianga-Kikuka","203312","P","0","CD","Nianga-Kikuka","city, village,...","KL","DR Congo","populated place","Kwilu","-5.77921","PPL","Nianga Kake","Likouala","Dongou"
"08","14.17078","8541717","Nianga-Goyo","203312","P","0","CD","Nianga-Goyo","city, village,...","BC","DR Congo","populated place","Bas-Congo","-4.5223","PPL","Nianga Kake","Likouala","Dongou"
"22","22.35055","923194","Ndumba","203312","P","0","CD","Ndumba","city, village,...","LU","DR Congo","populated place","Lualaba","-10.71362","PPL","Ndoumba","Likouala","Liranga"
"22","22.0647","8541961","Ndumba","203312","P","0","CD","Ndumba","city, village,...","LU","DR Congo","populated place","Lualaba","-9.73041","PPL","Ndoumba","Likouala","Liranga"
"23","22.27717","8285154","Ndumba","203312","P","0","CD","Ndumba","city, village,...","KC","DR Congo","populated place","Kasai-Central","-6.97654","PPL","Ndoumba","Likouala","Liranga"
"23","22.51405","8285223","Ndumba","203312","P","0","CD","Ndumba","city, village,...","KC","DR Congo","populated place","Kasai-Central","-6.89121","PPL","Ndoumba","Likouala","Liranga"
"22","23.98294","8462158","Ndumba","203312","P","0","CD","Ndumba","city, village,...","LU","DR Congo","populated place","Lualaba","-9.47691","PPL","Ndoumba","Likouala","Liranga"
"18","21.34056","8327318","Ndumba","203312","P","0","CD","Ndumba","city, village,...","KS","DR Congo","populated place","Kasai","-6.47715","PPL","Ndoumba","Likouala","Liranga"
"22","22.48846","923204","Ndjamba","203312","P","0","CD","Ndjamba","city, village,...","LU","DR Congo","populated place","Lualaba","-10.50816","PPL","Ndoumba","Likouala","Liranga"
"11","29.13872","8327977","Ndoluma","203312","P","0","CD","Ndoluma","city, village,...","NK","DR Congo","populated place","Nord Kivu","-0.30456","PPL","Ndoumba","Likouala","Liranga"
"21","25.00174","212789","Kipase Deuxième","203312","P","0","CD","Kipase Deuxième","city, village,...","LO","DR Congo","populated place","Lomami","-6.47707","PPL","Ndoumba","Likouala","Liranga"
"22","22.67092","8463674","Ndjamba","203312","P","0","CD","Ndjamba","city, village,...","LU","DR Congo","populated place","Lualaba","-10.32607","PPL","Ndoumba","Likouala","Liranga"
"23","21.9611","207350","Dombi","203312","P","0","CD","Dombi","city, village,...","KC","DR Congo","populated place","Kasai-Central","-7.59213","PPL","Ndoumba","Likouala","Liranga"
"23","22.53354","8285243","Ndumbu","203312","P","0","CD","Ndumbu","city, village,...","KC","DR Congo","populated place","Kasai-Central","-6.99824","PPL","Ndoumba","Likouala","Liranga"
"23","22.5749","8285247","Ndumbu","203312","P","0","CD","Ndumbu","city, village,...","KC","DR Congo","populated place","Kasai-Central","-6.9623","PPL","Ndoumba","Likouala","Liranga"
"19","17.5095","2312111","Ndamba","203312","P","0","CD","Ndamba","city, village,...","KG","DR Congo","populated place","Kwango","-6.33728","PPL","Ndoumba","Likouala","Liranga"
"08","15.25322","8254913","Ndamba","203312","P","0","CD","Ndamba","city, village,...","BC","DR Congo","populated place","Bas-Congo","-5.47251","PPL","Ndoumba","Likouala","Liranga"
"23","22.17769","8283546","Ndumbi","203312","P","0","CD","Ndumbi","city, village,...","KC","DR Congo","populated place","Kasai-Central","-6.23421","PPL","Ndoumba","Likouala","Liranga"
"22","22.22394","8461668","Ndemba","203312","P","0","CD","Ndemba","city, village,...","LU","DR Congo","populated place","Lualaba","-9.8634","PPL","Ndoumba","Likouala","Liranga"
"25","22.10238","208974","Monzamboli","203312","P","0","CD","Monzamboli","city, village,...","MO","DR Congo","populated place","Mongala","2.4737","PPL","Monokoboli","Likouala","Enyelle"
"24","17.87692","2312568","Mongobele","203312","P","0","CD","Mongobele","city, village,...","MN","DR Congo","populated place","Mai-Ndombe","-2.79857","PPL","Mongombete","Likouala","Liranga"
"25","21.08175","208713","Mongombo-Ngale","203312","P","0","CD","Mongombo-Ngale","city, village,...","MO","DR Congo","populated place","Mongala","2.41194","PPL","Mongombete","Likouala","Liranga"
"31","22.7533","208760","Mondombe","203312","P","0","CD","Mondombe","city, village,...","TU","DR Congo","populated place","Tshuapa","-0.77802","PPL","Mongombete","Likouala","Liranga"
"28","18.77579","2312567","Mongomba","203312","P","0","CD","Mongomba","city, village,...","SU","DR Congo","populated place","Sud-Ubangi","3.62286","PPL","Mongombete","Likouala","Liranga"
"12","28.10893","8441477","Mongembe","203312","P","0","CD","Mongembe","city, village,...","SK","DR Congo","populated place","South Kivu","-3.94476","PPL","Mongombete","Likouala","Liranga"
"25","21.53596","8248576","Mondombe","203312","P","0","CD","Mondombe","city, village,...","MO","DR Congo","populated place","Mongala","1.85518","PPL","Mongombete","Likouala","Liranga"
"10","26.36149","208851","Mombala","203312","P","0","CD","Mombala","city, village,...","MA","DR Congo","populated place","Maniema","-3.70689","PPL","Mogbala","Likouala","betou"
"28","18.15747","2313078","Mangbwala","203312","P","0","CD","Mangbwala","city, village,...","SU","DR Congo","populated place","Sud-Ubangi","2.23479","PPL","Mogbala","Likouala","betou"
"24","17.51526","2317038","Bobala","203312","P","0","CD","Bobala","city, village,...","MN","DR Congo","populated place","Mai-Ndombe","-2.55633","PPL","Mogbala","Likouala","betou"
"17","30.03861","208725","Mangbwalu","203312","P","0","CD","Mangbwalu","city, village,...","IT","DR Congo","populated place","Ituri","1.94468","PPL","Mogbala","Likouala","betou"
"21","25.21095","208842","Mombela","203312","P","0","CD","Mombela","city, village,...","LO","DR Congo","populated place","Lomami","-6.66546","PPL","Mogbala","Likouala","betou"
"13","23.41737","208964","Mogbai","203312","P","0","CD","Mogbai","city, village,...","BU","DR Congo","populated place","Bas-Uele","2.70024","PPL","Mogbala","Likouala","betou"
"28","19.06407","2312694","Mogalo","203312","P","0","CD","Mogalo","city, village,...","SU","DR Congo","populated place","Sud-Ubangi","3.1661","PPL","Mogbala","Likouala","betou"
"13","24.59281","208726","Mongbali","203312","P","0","CD","Mongbali","city, village,...","BU","DR Congo","populated place","Bas-Uele","3.43502","PPL","Mogbala","Likouala","betou"
"25","20.69276","208808","Mombwala","203312","P","0","CD","Mombwala","city, village,...","MO","DR Congo","populated place","Mongala","2.2029","PPL","Mogbala","Likouala","betou"
"30","24.17301","208849","Mombana","203312","P","0","CD","Mombana","city, village,...","TO","DR Congo","populated place","Tshopo","1.79888","PPL","Mogbala","Likouala","betou"
"13","23.66404","8147214","Mogbeta","203312","P","0","CD","Mogbeta","city, village,...","BU","DR Congo","populated place","Bas-Uele","2.61146","PPL","Mogbala","Likouala","betou"
"22","23.25174","8466573","Mondala","203312","P","0","CD","Mondala","city, village,...","LU","DR Congo","populated place","Lualaba","-10.3746","PPL","Mogbala","Likouala","betou"
"20","17.47367","2312620","Mombanda","203312","P","0","CD","Mombanda","city, village,...","KL","DR Congo","populated place","Kwilu","-4.0383","PPL","Mogbala","Likouala","betou"
"26","20.77155","8236130","Mogwaka","203312","P","0","CD","Mogwaka","city, village,...","NU","DR Congo","populated place","Nord-Ubangi","3.94096","PPL","Mogbala","Likouala","betou"
"26","21.7241","8238270","Mogwaka","203312","P","0","CD","Mogwaka","city, village,...","NU","DR Congo","populated place","Nord-Ubangi","3.49972","PPL","Mogbala","Likouala","betou"
"23","21.99585","208843","Mombela","203312","P","0","CD","Mombela","city, village,...","KC","DR Congo","populated place","Kasai-Central","-6.57804","PPL","Mogbala","Likouala","betou"
"23","22.55748","208844","Mombela","203312","P","0","CD","Mombela","city, village,...","KC","DR Congo","populated place","Kasai-Central","-6.31619","PPL","Mogbala","Likouala","betou"
"24","16.85","2312583","Mongala","203312","P","0","CD","Mongala","city, village,...","MN","DR Congo","populated place","Mai-Ndombe","-1.83333","PPL","Mogbala","Likouala","betou"
"24","17.55387","8432046","Mongala","203312","P","0","CD","Mongala","city, village,...","MN","DR Congo","populated place","Mai-Ndombe","-2.18416","PPL","Mogbala","Likouala","betou"
"21","25.91018","208457","Mukala","203312","P","0","CD","Mukala","city, village,...","LO","DR Congo","populated place","Lomami","-5.463","PPL","Mogbala","Likouala","betou"
"19","17.46763","2312958","Mawangu","203312","P","0","CD","Mawangu","city, village,...","KG","DR Congo","populated place","Kwango","-7.91497","PPL","Mawangui","Likouala","betou"
"19","16.73151","8331576","Mawangi","203312","P","0","CD","Mawangi","city, village,...","KG","DR Congo","populated place","Kwango","-6.19072","PPL","Mawangui","Likouala","betou"
"11","29.10638","208948","Mahangi","203312","P","0","CD","Mahangi","city, village,...","NK","DR Congo","populated place","Nord Kivu","0.04431","PPL","Mawangui","Likouala","betou"
"18","20.30733","209577","Mapangu","203312","P","0","CD","Mapangu","city, village,...","KS","DR Congo","populated place","Kasai","-4.40454","PPL","Mawangui","Likouala","betou"
"18","21.36238","209873","Malangu","203312","P","0","CD","Malangu","city, village,...","KS","DR Congo","populated place","Kasai","-5.39375","PPL","Mawangui","Likouala","betou"
"17","29.43613","209897","Makwangi","203312","P","0","CD","Makwangi","city, village,...","IT","DR Congo","populated place","Ituri","1.39403","PPL","Mawangui","Likouala","betou"
"19","17.39468","2312960","Mawanga","203312","P","0","CD","Mawanga","city, village,...","KG","DR Congo","populated place","Kwango","-6.33614","PPL","Mawangui","Likouala","betou"
"19","18.51679","2312987","Matangu","203312","P","0","CD","Matangu","city, village,...","KG","DR Congo","populated place","Kwango","-6.2394","PPL","Mawangui","Likouala","betou"
"20","19.30379","8276479","Mabangi","203312","P","0","CD","Mabangi","city, village,...","KL","DR Congo","populated place","Kwilu","-5.76327","PPL","Mawangui","Likouala","betou"
"23","21.85422","8327470","Mayangu","203312","P","0","CD","Mayangu","city, village,...","KC","DR Congo","populated place","Kasai-Central","-6.70324","PPL","Mawangui","Likouala","betou"
"18","21.00553","8277276","Mapangu","203312","P","0","CD","Mapangu","city, village,...","KS","DR Congo","populated place","Kasai","-5.43315","PPL","Mawangui","Likouala","betou"
"15","26.22876","209520","Masangu","203312","P","0","CD","Masangu","city, village,...","HL","DR Congo","populated place","Haut-Lomami","-8.24939","PPL","Mawangui","Likouala","betou"
"12","28.93139","387646","Masangu","203312","P","0","CD","Masangu","city, village,...","SK","DR Congo","populated place","South Kivu","-4.65472","PPL","Mawangui","Likouala","betou"
"08","14.75332","8325117","Masangu","203312","P","0","CD","Masangu","city, village,...","BC","DR Congo","populated place","Bas-Congo","-5.34923","PPL","Mawangui","Likouala","betou"
"08","14.20588","2313024","Masangi","203312","P","0","CD","Masangi","city, village,...","BC","DR Congo","populated place","Bas-Congo","-4.55923","PPL","Mawangui","Likouala","betou"
"08","13.87094","2313025","Masangi","203312","P","0","CD","Masangi","city, village,...","BC","DR Congo","populated place","Bas-Congo","-4.60023","PPL","Mawangui","Likouala","betou"
"08","14.55081","8328121","Masangi","203312","P","0","CD","Masangi","city, village,...","BC","DR Congo","populated place","Bas-Congo","-5.01114","PPL","Mawangui","Likouala","betou"
"08","14.40299","8443224","Masangi","203312","P","0","CD","Masangi","city, village,...","BC","DR Congo","populated place","Bas-Congo","-4.70798","PPL","Mawangui","Likouala","betou"
"08","14.28419","8443268","Masangi","203312","P","0","CD","Masangi","city, village,...","BC","DR Congo","populated place","Bas-Congo","-4.99509","PPL","Mawangui","Likouala","betou"
"19","17.66959","2312988","Matangi","203312","P","0","CD","Matangi","city, village,...","KG","DR Congo","populated place","Kwango","-7.85801","PPL","Mawangui","Likouala","betou"
"24","16.30418","2312657","Makolo","203312","P","0","CD","Makolo","city, village,...","MN","DR Congo","populated place","Mai-Ndombe","-2.16449","PPL","Mankolo","Likouala","Dongou"
"08","13.99633","8442717","Mankoko","203312","P","0","CD","Mankoko","city, village,...","BC","DR Congo","populated place","Bas-Congo","-4.51968","PPL","Mankolo","Likouala","Dongou"
"20","19.96667","2313074","Mangolo","203312","P","0","CD","Mangolo","city, village,...","KL","DR Congo","populated place","Kwilu","-5.13333","PPL","Mankolo","Likouala","Dongou"
"20","18.91357","2591327","Mangolo","203312","P","0","CD","Mangolo","city, village,...","KL","DR Congo","populated place","Kwilu","-5.44863","PPL","Mankolo","Likouala","Dongou"
"18","21.51145","209959","Makolo","203312","P","0","CD","Makolo","city, village,...","KS","DR Congo","populated place","Kasai","-5.45534","PPL","Mankolo","Likouala","Dongou"
"29","27.39894","209598","Manono","203312","P","0","CD","Manono","city, village,...","TA","DR Congo","populated place","Tanganyika","-7.29862","PPL","Mankolo","Likouala","Dongou"
"16","28.46188","209689","Mandoro","203312","P","0","CD","Mandoro","city, village,...","HU","DR Congo","populated place","Haut-Uele","4.18613","PPL","Mankolo","Likouala","Dongou"
"02","18.09707","2312658","Mokolo","203312","P","0","CD","Mokolo","city, village,...","EQ","DR Congo","populated place","Équateur","1.95428","PPL","Mankolo","Likouala","Dongou"
"13","23.85363","209562","Mapolo","203312","P","0","CD","Mapolo","city, village,...","BU","DR Congo","populated place","Bas-Uele","3.33121","PPL","Mankolo","Likouala","Dongou"
"20","17.67596","2313073","Mangolu","203312","P","0","CD","Mangolu","city, village,...","KL","DR Congo","populated place","Kwilu","-5.32929","PPL","Mankolo","Likouala","Dongou"
"12","26.98333","209601","Mankulu","203312","P","0","CD","Mankulu","city, village,...","SK","DR Congo","populated place","South Kivu","-2.81667","PPL","Mankolo","Likouala","Dongou"
"30","27.83333","209607","Maniole","203312","P","0","CD","Maniole","city, village,...","TO","DR Congo","populated place","Tshopo","0.95","PPL","Mankolo","Likouala","Dongou"
"13","26.57238","8062320","Mandole","203312","P","0","CD","Mandole","city, village,...","BU","DR Congo","populated place","Bas-Uele","2.51638","PPL","Mankolo","Likouala","Dongou"
"08","14.13989","8325321","Mantoto","203312","P","0","CD","Mantoto","city, village,...","BC","DR Congo","populated place","Bas-Congo","-5.58305","PPL","Mankolo","Likouala","Dongou"
"15","24.22389","209605","Maniono","203312","P","0","CD","Maniono","city, village,...","HL","DR Congo","populated place","Haut-Lomami","-7.13913","PPL","Mankolo","Likouala","Dongou"
"31","20.83333","209606","Maniono","203312","P","0","CD","Maniono","city, village,...","TU","DR Congo","populated place","Tshuapa","-1.76667","PPL","Mankolo","Likouala","Dongou"
"19","17.44762","8434489","Manzoli","203312","P","0","CD","Manzoli","city, village,...","KG","DR Congo","populated place","Kwango","-6.04781","PPL","Mankolo","Likouala","Dongou"
"13","24.64037","209586","Manzilo","203312","P","0","CD","Manzilo","city, village,...","BU","DR Congo","populated place","Bas-Uele","3.40697","PPL","Mankolo","Likouala","Dongou"
"11","28.10553","209633","Mangobo","203312","P","0","CD","Mangobo","city, village,...","NK","DR Congo","populated place","Nord Kivu","-0.30821","PPL","Mankolo","Likouala","Dongou"
"24","16.19205","2313053","Mankondo","203312","P","0","CD","Mankondo","city, village,...","MN","DR Congo","populated place","Mai-Ndombe","-3.05404","PPL","Mankolo","Likouala","Dongou"
"24","16.30418","2312657","Makolo","203312","P","0","CD","Makolo","city, village,...","MN","DR Congo","populated place","Mai-Ndombe","-2.16449","PPL","Makolo","Likouala","Liranga"
"13","23.85363","209562","Mapolo","203312","P","0","CD","Mapolo","city, village,...","BU","DR Congo","populated place","Bas-Uele","3.33121","PPL","Makolo","Likouala","Liranga"
"18","21.51145","209959","Makolo","203312","P","0","CD","Makolo","city, village,...","KS","DR Congo","populated place","Kasai","-5.45534","PPL","Makolo","Likouala","Liranga"
"31","20.32628","210021","Makako","203312","P","0","CD","Makako","city, village,...","TU","DR Congo","populated place","Tshuapa","-1.00242","PPL","Makolo","Likouala","Liranga"
"02","18.09707","2312658","Mokolo","203312","P","0","CD","Mokolo","city, village,...","EQ","DR Congo","populated place","Équateur","1.95428","PPL","Makolo","Likouala","Liranga"
"20","18.46667","2313157","Makoso","203312","P","0","CD","Makoso","city, village,...","KL","DR Congo","populated place","Kwilu","-4.63333","PPL","Makolo","Likouala","Liranga"
"19","17.95239","8447419","Mafolo","203312","P","0","CD","Mafolo","city, village,...","KG","DR Congo","populated place","Kwango","-7.18745","PPL","Makolo","Likouala","Liranga"
"20","19.16876","8276430","Maholo","203312","P","0","CD","Maholo","city, village,...","KL","DR Congo","populated place","Kwilu","-5.50748","PPL","Makolo","Likouala","Liranga"
"22","23.15087","209937","Mukoz","203312","P","0","CD","Mukoz","city, village,...","LU","DR Congo","populated place","Lualaba","-8.1441","PPL","Makolo","Likouala","Liranga"
"29","26.19747","209960","Makole","203312","P","0","CD","Makole","city, village,...","TA","DR Congo","populated place","Tanganyika","-6.62163","PPL","Makolo","Likouala","Liranga"
"21","25.64173","209961","Makole","203312","P","0","CD","Makole","city, village,...","LO","DR Congo","populated place","Lomami","-5.45463","PPL","Makolo","Likouala","Liranga"
"20","18.77939","8276274","Makoto","203312","P","0","CD","Makoto","city, village,...","KL","DR Congo","populated place","Kwilu","-5.77294","PPL","Makolo","Likouala","Liranga"
"20","19.17504","8276529","Makoto","203312","P","0","CD","Makoto","city, village,...","KL","DR Congo","populated place","Kwilu","-5.41894","PPL","Makolo","Likouala","Liranga"
"16","30.23527","209580","Maolo","203312","P","0","CD","Maolo","city, village,...","HU","DR Congo","populated place","Haut-Uele","3.27882","PPL","Makolo","Likouala","Liranga"
"21","25.05","209962","Makola","203312","P","0","CD","Makola","city, village,...","LO","DR Congo","populated place","Lomami","-5.06667","PPL","Makolo","Likouala","Liranga"
"16","29.88908","209941","Makoro","203312","P","0","CD","Makoro","city, village,...","HU","DR Congo","populated place","Haut-Uele","3.13706","PPL","Makolo","Likouala","Liranga"
"29","27.39894","209598","Manono","203312","P","0","CD","Manono","city, village,...","TA","DR Congo","populated place","Tanganyika","-7.29862","PPL","Makolo","Likouala","Liranga"
"17","29.1852","7504712","Makoko","203312","P","0","CD","Makoko","city, village,...","IT","DR Congo","populated place","Ituri","1.35308","PPL","Makolo","Likouala","Liranga"
"10","25.97126","209986","Makele","203312","P","0","CD","Makele","city, village,...","MA","DR Congo","populated place","Maniema","-2.68198","PPL","Makolo","Likouala","Liranga"
"16","27.44793","209952","Makombo","203312","P","0","CD","Makombo","city, village,...","HU","DR Congo","populated place","Haut-Uele","3.65968","PPL","Makolo","Likouala","Liranga"
"02","19.43492","2313518","Lotumbe","203312","P","0","CD","Lotumbe","city, village,...","EQ","DR Congo","populated place","Équateur","-0.54913","PPL","Loumbe","Likouala","betou"
"14","28.69918","10048376","Loombe","203312","P","0","CD","Loombe","city, village,...","HK","DR Congo","populated place","Haut-Katanga","-8.71543","PPL","Loumbe","Likouala","betou"
"08","13.08333","2313574","Lombe","203312","P","0","CD","Lombe","city, village,...","BC","DR Congo","populated place","Bas-Congo","-5.18333","PPL","Loumbe","Likouala","betou"
"13","22.85","211436","Lombe","203312","P","0","CD","Lombe","city, village,...","BU","DR Congo","populated place","Bas-Uele","3.43333","PPL","Loumbe","Likouala","betou"
"12","29.09861","387588","Lombe","203312","P","0","CD","Lombe","city, village,...","SK","DR Congo","populated place","South Kivu","-3.88278","PPL","Loumbe","Likouala","betou"
"08","12.88529","8252355","Lombe","203312","P","0","CD","Lombe","city, village,...","BC","DR Congo","populated place","Bas-Congo","-5.84183","PPL","Loumbe","Likouala","betou"
"08","13.08914","8252722","Lombe","203312","P","0","CD","Lombe","city, village,...","BC","DR Congo","populated place","Bas-Congo","-5.71255","PPL","Loumbe","Likouala","betou"
"20","18.76049","8276144","Lombe","203312","P","0","CD","Lombe","city, village,...","KL","DR Congo","populated place","Kwilu","-5.58702","PPL","Loumbe","Likouala","betou"
"08","14.16653","8325340","Lombe","203312","P","0","CD","Lombe","city, village,...","BC","DR Congo","populated place","Bas-Congo","-5.77682","PPL","Loumbe","Likouala","betou"
"23","21.91","8327197","Lombe","203312","P","0","CD","Lombe","city, village,...","KC","DR Congo","populated place","Kasai-Central","-6.05569","PPL","Loumbe","Likouala","betou"
"13","23.22743","8197708","Lombe","203312","P","0","CD","Lombe","city, village,...","BU","DR Congo","populated place","Bas-Uele","3.42704","PPL","Loumbe","Likouala","betou"
"24","18.19259","2313575","Lombi","203312","P","0","CD","Lombi","city, village,...","MN","DR Congo","populated place","Mai-Ndombe","-1.56583","PPL","Loumbe","Likouala","betou"
"24","18.98333","2313625","Lokombe","203312","P","0","CD","Lokombe","city, village,...","MN","DR Congo","populated place","Mai-Ndombe","-3.56667","PPL","Loumbe","Likouala","betou"
"31","21.33333","211895","Lifumba","203312","P","0","CD","Lifumba","city, village,...","TU","DR Congo","populated place","Tshuapa","0.53333","PPL","Loumbe","Likouala","betou"
"31","20.98333","211499","Lokumbo","203312","P","0","CD","Lokumbo","city, village,...","TU","DR Congo","populated place","Tshuapa","0.4","PPL","Loumbe","Likouala","betou"
"31","21.71667","211500","Lokumbo","203312","P","0","CD","Lokumbo","city, village,...","TU","DR Congo","populated place","Tshuapa","-0.21667","PPL","Loumbe","Likouala","betou"
"02","20.41667","211501","Lokumbo","203312","P","0","CD","Lokumbo","city, village,...","EQ","DR Congo","populated place","Équateur","-0.01667","PPL","Loumbe","Likouala","betou"
"24","19.98915","2313541","Loombo","203312","P","0","CD","Loombo","city, village,...","MN","DR Congo","populated place","Mai-Ndombe","-2.55958","PPL","Loumbe","Likouala","betou"
"10","25.18333","211529","Lokombe","203312","P","0","CD","Lokombe","city, village,...","MA","DR Congo","populated place","Maniema","-4.38333","PPL","Loumbe","Likouala","betou"
"23","22.54171","8328909","Loamba","203312","P","0","CD","Loamba","city, village,...","KC","DR Congo","populated place","Kasai-Central","-5.89988","PPL","Loumbe","Likouala","betou"
"28","19.25139","2313753","Libobi","203312","P","0","CD","Libobi","city, village,...","SU","DR Congo","populated place","Sud-Ubangi","2.34965","PPL","Ligoyi","Likouala","Liranga"
"24","18.80176","2313751","Libo Première","203312","P","0","CD","Libo Première","city, village,...","MN","DR Congo","populated place","Mai-Ndombe","-2.92188","PPL","Ligoyi","Likouala","Liranga"
"30","24.19338","8149594","Ligoga","203312","P","0","CD","Ligoga","city, village,...","TO","DR Congo","populated place","Tshopo","1.80334","PPL","Ligoyi","Likouala","Liranga"
"22","23.69474","8462212","Liwoji","203312","P","0","CD","Liwoji","city, village,...","LU","DR Congo","populated place","Lualaba","-9.09808","PPL","Ligoyi","Likouala","Liranga"
"02","19.05","2313724","Likoli","203312","P","0","CD","Likoli","city, village,...","EQ","DR Congo","populated place","Équateur","-0.45","PPL","Ligoyi","Likouala","Liranga"
"25","21.54754","211756","Lingoye","203312","P","0","CD","Lingoye","city, village,...","MO","DR Congo","populated place","Mongala","2.04772","PPL","Ligoyi","Likouala","Liranga"
"16","28.3","211843","Likosi","203312","P","0","CD","Likosi","city, village,...","HU","DR Congo","populated place","Haut-Uele","2.43333","PPL","Ligoyi","Likouala","Liranga"
"13","25.62754","211942","Libobi","203312","P","0","CD","Libobi","city, village,...","BU","DR Congo","populated place","Bas-Uele","2.99634","PPL","Ligoyi","Likouala","Liranga"
"31","21.48383","211865","Likete","203312","P","0","CD","Likete","city, village,...","TU","DR Congo","populated place","Tshuapa","-0.83616","PPL","Lignete","Likouala","Liranga"
"13","23.60252","212287","Kpete","203312","P","0","CD","Kpete","city, village,...","BU","DR Congo","populated place","Bas-Uele","4.58811","PPL","Kpeta","Likouala","Dongou"
"31","22.6","215746","Itele","203312","P","0","CD","Itele","city, village,...","TU","DR Congo","populated place","Tshuapa","-0.85","PPL","Itele","Likouala","betou"
"02","17.56667","2315349","Iteke","203312","P","0","CD","Iteke","city, village,...","EQ","DR Congo","populated place","Équateur","-1.4","PPL","Itele","Likouala","betou"
"18","21.46514","215744","Iteli","203312","P","0","CD","Iteli","city, village,...","KS","DR Congo","populated place","Kasai","-3.64474","PPL","Itele","Likouala","betou"
"31","20.85","215745","Iteli","203312","P","0","CD","Iteli","city, village,...","TU","DR Congo","populated place","Tshuapa","-0.9","PPL","Itele","Likouala","betou"
"20","19.33333","2315344","Itere","203312","P","0","CD","Itere","city, village,...","KL","DR Congo","populated place","Kwilu","-4.28333","PPL","Itele","Likouala","betou"
"20","19.27082","2315345","Itere","203312","P","0","CD","Itere","city, village,...","KL","DR Congo","populated place","Kwilu","-4.09049","PPL","Itele","Likouala","betou"
"18","22.03333","216008","Ikondoko","203312","P","0","CD","Ikondoko","city, village,...","KS","DR Congo","populated place","Kasai","-2.93333","PPL","Ikongolo","Likouala","Liranga"
"27","23.27124","215855","Inkongo","203312","P","0","CD","Inkongo","city, village,...","SA","DR Congo","populated place","Sankuru","-4.89307","PPL","Ikongolo","Likouala","Liranga"
"18","21.76667","216006","Ikongo","203312","P","0","CD","Ikongo","city, village,...","KS","DR Congo","populated place","Kasai","-3.4","PPL","Ikongolo","Likouala","Liranga"
"24","18.77345","2315513","Ikongo","203312","P","0","CD","Ikongo","city, village,...","MN","DR Congo","populated place","Mai-Ndombe","-3.59191","PPL","Ikongolo","Likouala","Liranga"
"24","18.48333","2315514","Ikongo","203312","P","0","CD","Ikongo","city, village,...","MN","DR Congo","populated place","Mai-Ndombe","-1.45","PPL","Ikongolo","Likouala","Liranga"
"24","19.11667","2315515","Ikongo","203312","P","0","CD","Ikongo","city, village,...","MN","DR Congo","populated place","Mai-Ndombe","-1.06667","PPL","Ikongolo","Likouala","Liranga"
"27","22.9","216005","Ikongo","203312","P","0","CD","Ikongo","city, village,...","SA","DR Congo","populated place","Sankuru","-3.45","PPL","Ikongolo","Likouala","Liranga"
"24","19.1811","2315904","Ekwayolo","203312","P","0","CD","Ekwayolo","city, village,...","MN","DR Congo","populated place","Mai-Ndombe","-2.99195","PPL","Ikongolo","Likouala","Liranga"
"20","18.78623","8446906","Ikwangola","203312","P","0","CD","Ikwangola","city, village,...","KL","DR Congo","populated place","Kwilu","-3.67059","PPL","Ikongolo","Likouala","Liranga"
"25","19.93333","2315507","Ikonongo","203312","P","0","CD","Ikonongo","city, village,...","MO","DR Congo","populated place","Mongala","1.93333","PPL","Ikongolo","Likouala","Liranga"
"16","29.67099","216409","Gawa","203312","P","0","CD","Gawa","city, village,...","HU","DR Congo","populated place","Haut-Uele","3.10737","PPL","Gaga","Likouala","betou"
"15","25.95145","216496","Gaba","203312","P","0","CD","Gaba","city, village,...","HL","DR Congo","populated place","Haut-Lomami","-8.52797","PPL","Gaga","Likouala","betou"
"13","23.06353","216407","Gaya","203312","P","0","CD","Gaya","city, village,...","BU","DR Congo","populated place","Bas-Uele","4.18806","PPL","Gaga","Likouala","betou"
"10","25.83333","216468","Gama","203312","P","0","CD","Gama","city, village,...","MA","DR Congo","populated place","Maniema","-1.63333","PPL","Gaga","Likouala","betou"
"13","25.6602","216416","Gara","203312","P","0","CD","Gara","city, village,...","BU","DR Congo","populated place","Bas-Uele","3.42102","PPL","Gaga","Likouala","betou"
"00","25.5","216421","Gapa","203312","P","0","CD","Gapa","city, village,...",NA,"DR Congo","populated place","","5.35","PPL","Gaga","Likouala","betou"
"26","22.32469","8247636","Gapa","203312","P","0","CD","Gapa","city, village,...","NU","DR Congo","populated place","Nord-Ubangi","4.05419","PPL","Gaga","Likouala","betou"
"21","25.86667","216481","Gaka","203312","P","0","CD","Gaka","city, village,...","LO","DR Congo","populated place","Lomami","-6.1","PPL","Gaga","Likouala","betou"
"06","15.82089","2315770","Gana","203312","P","0","CD","Gana","city, village,...","KN","DR Congo","populated place","Kinshasa","-4.65384","PPL","Gaga","Likouala","betou"
"11","29.97087","8329247","Gawa","203312","P","0","CD","Gawa","city, village,...","NK","DR Congo","populated place","Nord Kivu","0.6949","PPL","Gaga","Likouala","betou"
"26","19.91093","2315784","Gaba","203312","P","0","CD","Gaba","city, village,...","NU","DR Congo","populated place","Nord-Ubangi","4.59754","PPL","Gaga","Likouala","betou"
"13","23.75566","8197726","Gaba","203312","P","0","CD","Gaba","city, village,...","BU","DR Congo","populated place","Bas-Uele","3.50389","PPL","Gaga","Likouala","betou"
"13","26.16667","216408","Gaya","203312","P","0","CD","Gaya","city, village,...","BU","DR Congo","populated place","Bas-Uele","3.43333","PPL","Gaga","Likouala","betou"
"13","23.20286","8239161","Gaya","203312","P","0","CD","Gaya","city, village,...","BU","DR Congo","populated place","Bas-Uele","4.62186","PPL","Gaga","Likouala","betou"
"16","27.56729","216413","Gata","203312","P","0","CD","Gata","city, village,...","HU","DR Congo","populated place","Haut-Uele","3.64201","PPL","Gaga","Likouala","betou"
"13","26.75","216467","Gama","203312","P","0","CD","Gama","city, village,...","BU","DR Congo","populated place","Bas-Uele","3.35","PPL","Gaga","Likouala","betou"
"19","18.27826","2315754","Ganga","203312","P","0","CD","Ganga","city, village,...","KG","DR Congo","populated place","Kwango","-6.20101","PPL","Gaga","Likouala","betou"
"15","25.93333","216435","Ganga","203312","P","0","CD","Ganga","city, village,...","HL","DR Congo","populated place","Haut-Lomami","-6.28333","PPL","Gaga","Likouala","betou"
"13","25.97216","216436","Ganga","203312","P","0","CD","Ganga","city, village,...","BU","DR Congo","populated place","Bas-Uele","3.3867","PPL","Gaga","Likouala","betou"
"16","27.9584","216437","Ganga","203312","P","0","CD","Ganga","city, village,...","HU","DR Congo","populated place","Haut-Uele","3.29008","PPL","Gaga","Likouala","betou"
"16","28.62787","8024607","Etiga","203312","P","0","CD","Etiga","city, village,...","HU","DR Congo","populated place","Haut-Uele","3.30032","PPL","Etima","Likouala","Liranga"
"16","28.51635","8223917","Etiga","203312","P","0","CD","Etiga","city, village,...","HU","DR Congo","populated place","Haut-Uele","3.11305","PPL","Etima","Likouala","Liranga"
"24","18.83333","2315879","Elonda","203312","P","0","CD","Elonda","city, village,...","MN","DR Congo","populated place","Mai-Ndombe","-1.26667","PPL","Elenda","Likouala","Epena"
"31","22.56667","216736","Elonda","203312","P","0","CD","Elonda","city, village,...","TU","DR Congo","populated place","Tshuapa","0.55","PPL","Elenda","Likouala","Epena"
"31","22.73333","216750","Elinda","203312","P","0","CD","Elinda","city, village,...","TU","DR Congo","populated place","Tshuapa","0.81667","PPL","Elenda","Likouala","Epena"
"20","19.38981","2315898","Elanga","203312","P","0","CD","Elanga","city, village,...","KL","DR Congo","populated place","Kwilu","-4.39748","PPL","Elenda","Likouala","Epena"
"21","25.7","216723","Elunga","203312","P","0","CD","Elunga","city, village,...","LO","DR Congo","populated place","Lomami","-5.11667","PPL","Elenda","Likouala","Epena"
"31","20.55","216759","Elengwa","203312","P","0","CD","Elengwa","city, village,...","TU","DR Congo","populated place","Tshuapa","0.86667","PPL","Elenda","Likouala","Epena"
"13","25.58937","216765","Elelia","203312","P","0","CD","Elelia","city, village,...","BU","DR Congo","populated place","Bas-Uele","3.23319","PPL","Elenda","Likouala","Epena"
"17","30.63162","8144064","Elenio","203312","P","0","CD","Elenio","city, village,...","IT","DR Congo","populated place","Ituri","3.1646","PPL","Elenda","Likouala","Epena"
"18","22.15221","216771","Banishi","203312","P","0","CD","Banishi","city, village,...","KS","DR Congo","populated place","Kasai","-4.79745","PPL","Elenda","Likouala","Epena"
"27","23.99209","216762","Elenge","203312","P","0","CD","Elenge","city, village,...","SA","DR Congo","populated place","Sankuru","-3.45582","PPL","Elenda","Likouala","Epena"
"31","21.05","216733","Elonga","203312","P","0","CD","Elonga","city, village,...","TU","DR Congo","populated place","Tshuapa","-1.65","PPL","Elenda","Likouala","Epena"
"20","19.41667","2315899","Elanga","203312","P","0","CD","Elanga","city, village,...","KL","DR Congo","populated place","Kwilu","-4.1","PPL","Elenda","Likouala","Epena"
"02","18.63859","2315900","Elanga","203312","P","0","CD","Elanga","city, village,...","EQ","DR Congo","populated place","Équateur","-0.58128","PPL","Elenda","Likouala","Epena"
"02","18.29663","2315901","Elanga","203312","P","0","CD","Elanga","city, village,...","EQ","DR Congo","populated place","Équateur","-0.49277","PPL","Elenda","Likouala","Epena"
"02","20.3","216747","Elinga","203312","P","0","CD","Elinga","city, village,...","EQ","DR Congo","populated place","Équateur","0.88333","PPL","Elenda","Likouala","Epena"
"31","22.10439","216748","Elinga","203312","P","0","CD","Elinga","city, village,...","TU","DR Congo","populated place","Tshuapa","-0.63924","PPL","Elenda","Likouala","Epena"
"31","21.91667","216749","Elinga","203312","P","0","CD","Elinga","city, village,...","TU","DR Congo","populated place","Tshuapa","-0.5","PPL","Elenda","Likouala","Epena"
"31","20.93333","216772","Elanga","203312","P","0","CD","Elanga","city, village,...","TU","DR Congo","populated place","Tshuapa","-1.61667","PPL","Elenda","Likouala","Epena"
"25","21.67096","11888055","Elinoa","203312","P","0","CD","Elinoa","city, village,...","MO","DR Congo","abandoned populated place","Mongala","1.27253","PPLQ","Elenda","Likouala","Epena"
"31","22.63333","218550","Bokende","203312","P","0","CD","Bokende","city, village,...","TU","DR Congo","populated place","Tshuapa","-0.6","PPL","Bokpende","Likouala","Dongou"
"31","20.88053","218680","Boende","203312","P","32091","CD","Boende","city, village,...","TU","DR Congo","seat of a first-order administrative division","Tshuapa","-0.28163","PPLA","Bokpende","Likouala","Dongou"
"24","19.26667","2316545","Bonkende","203312","P","0","CD","Bonkende","city, village,...","MN","DR Congo","populated place","Mai-Ndombe","-1.11667","PPL","Bokpende","Likouala","Dongou"
"24","16.42761","2316584","Bongende","203312","P","0","CD","Bongende","city, village,...","MN","DR Congo","populated place","Mai-Ndombe","-2.03251","PPL","Bokpende","Likouala","Dongou"
"13","23.06281","218494","Bokpekpe","203312","P","0","CD","Bokpekpe","city, village,...","BU","DR Congo","populated place","Bas-Uele","2.59859","PPL","Bokpende","Likouala","Dongou"
"02","18.30324","2316399","Botenge","203312","P","0","CD","Botenge","city, village,...","EQ","DR Congo","populated place","Équateur","-0.56166","PPL","Bokpende","Likouala","Dongou"
"30","25.3403","218744","Bobende Première","203312","P","0","CD","Bobende Première","city, village,...","TO","DR Congo","populated place","Tshopo","1.56191","PPL","Bokpende","Likouala","Dongou"
"26","20.85209","218482","Bokunde","203312","P","0","CD","Bokunde","city, village,...","NU","DR Congo","populated place","Nord-Ubangi","3.32395","PPL","Bokpende","Likouala","Dongou"
"31","22.85485","218032","Botende","203312","P","0","CD","Botende","city, village,...","TU","DR Congo","populated place","Tshuapa","-1.9107","PPL","Bokpende","Likouala","Dongou"
"25","22.6311","218093","Bosende","203312","P","0","CD","Bosende","city, village,...","MO","DR Congo","populated place","Mongala","2.18276","PPL","Bokpende","Likouala","Dongou"
"28","20.03194","8235970","Bolende","203312","P","0","CD","Bolende","city, village,...","SU","DR Congo","populated place","Sud-Ubangi","3.13516","PPL","Bokpende","Likouala","Dongou"
"31","21.35","218552","Bokenda","203312","P","0","CD","Bokenda","city, village,...","TU","DR Congo","populated place","Tshuapa","0.45","PPL","Bokpende","Likouala","Dongou"
"24","19.61667","2317016","Bobende","203312","P","0","CD","Bobende","city, village,...","MN","DR Congo","populated place","Mai-Ndombe","-1.88333","PPL","Bokpende","Likouala","Dongou"
"25","21.4342","218745","Bobende","203312","P","0","CD","Bobende","city, village,...","MO","DR Congo","populated place","Mongala","2.0252","PPL","Bokpende","Likouala","Dongou"
"30","25.31679","8149780","Bobende","203312","P","0","CD","Bobende","city, village,...","TO","DR Congo","populated place","Tshopo","1.57368","PPL","Bokpende","Likouala","Dongou"
"25","21.37235","8277688","Bobende","203312","P","0","CD","Bobende","city, village,...","MO","DR Congo","populated place","Mongala","2.20162","PPL","Bokpende","Likouala","Dongou"
"26","19.42613","2316875","Bokenge","203312","P","0","CD","Bokenge","city, village,...","NU","DR Congo","populated place","Nord-Ubangi","4.09807","PPL","Bokpende","Likouala","Dongou"
"24","16.95875","2316876","Bokenge","203312","P","0","CD","Bokenge","city, village,...","MN","DR Congo","populated place","Mai-Ndombe","-1.79824","PPL","Bokpende","Likouala","Dongou"
"24","18.93333","2316877","Bokenge","203312","P","0","CD","Bokenge","city, village,...","MN","DR Congo","populated place","Mai-Ndombe","-1.23333","PPL","Bokpende","Likouala","Dongou"
"24","19.08333","2316878","Bokenge","203312","P","0","CD","Bokenge","city, village,...","MN","DR Congo","populated place","Mai-Ndombe","-1.01667","PPL","Bokpende","Likouala","Dongou"
"28","19.10081","2316710","Bolumba","203312","P","0","CD","Bolumba","city, village,...","SU","DR Congo","populated place","Sud-Ubangi","3.04029","PPL","Bokoumba","Likouala","Impfondo"
"02","19.22897","2316739","Bolomba","203312","P","0","CD","Bolomba","city, village,...","EQ","DR Congo","populated place","Équateur","0.35133","PPL","Bokoumba","Likouala","Impfondo"
"02","19.26667","2316603","Bondumba","203312","P","0","CD","Bondumba","city, village,...","EQ","DR Congo","populated place","Équateur","0.75","PPL","Bokoumba","Likouala","Impfondo"
"30","23.63043","218606","Bohuma","203312","P","0","CD","Bohuma","city, village,...","TO","DR Congo","populated place","Tshopo","0.9621","PPL","Bokoumba","Likouala","Impfondo"
"31","20.41667","218526","Bokombu","203312","P","0","CD","Bokombu","city, village,...","TU","DR Congo","populated place","Tshuapa","-0.1","PPL","Bokoumba","Likouala","Impfondo"
"25","22.1893","8279654","Bokumbi","203312","P","0","CD","Bokumbi","city, village,...","MO","DR Congo","populated place","Mongala","2.23259","PPL","Bokoumba","Likouala","Impfondo"
"26","20.09264","218010","Botumba","203312","P","0","CD","Botumba","city, village,...","NU","DR Congo","populated place","Nord-Ubangi","3.95722","PPL","Bokoumba","Likouala","Impfondo"
"24","19.48333","2317179","Bemomba","203312","P","0","CD","Bemomba","city, village,...","MN","DR Congo","populated place","Mai-Ndombe","-2.15","PPL","Bokoumba","Likouala","Impfondo"
"24","19.86667","2316376","Botumbe","203312","P","0","CD","Botumbe","city, village,...","MN","DR Congo","populated place","Mai-Ndombe","-3.16667","PPL","Bokoumba","Likouala","Impfondo"
"02","18.00546","2316844","Bokombo","203312","P","0","CD","Bokombo","city, village,...","EQ","DR Congo","populated place","Équateur","-0.1774","PPL","Bokoumba","Likouala","Impfondo"
"02","19.5837","2316845","Bokombe","203312","P","0","CD","Bokombe","city, village,...","EQ","DR Congo","populated place","Équateur","1.10867","PPL","Bokoumba","Likouala","Impfondo"
"02","18.06667","2316846","Bokombe","203312","P","0","CD","Bokombe","city, village,...","EQ","DR Congo","populated place","Équateur","1.11667","PPL","Bokoumba","Likouala","Impfondo"
"02","18.65","2316895","Bokamba","203312","P","0","CD","Bokamba","city, village,...","EQ","DR Congo","populated place","Équateur","-0.15","PPL","Bokoumba","Likouala","Impfondo"
"25","21.45368","218587","Bokamba","203312","P","0","CD","Bokamba","city, village,...","MO","DR Congo","populated place","Mongala","2.80357","PPL","Bokoumba","Likouala","Impfondo"
"31","21.08333","218588","Bokamba","203312","P","0","CD","Bokamba","city, village,...","TU","DR Congo","populated place","Tshuapa","-0.06667","PPL","Bokoumba","Likouala","Impfondo"
"25","22.82336","11903337","Bokombe","203312","P","0","CD","Bokombe","city, village,...","MO","DR Congo","populated place","Mongala","2.20921","PPL","Bokoumba","Likouala","Impfondo"
"25","20.88577","8198672","Bolombo","203312","P","0","CD","Bolombo","city, village,...","MO","DR Congo","populated place","Mongala","2.92891","PPL","Bokoumba","Likouala","Impfondo"
"16","27.9559","218486","Bokuma","203312","P","0","CD","Bokuma","city, village,...","HU","DR Congo","populated place","Haut-Uele","2.4326","PPL","Bokoumba","Likouala","Impfondo"
"02","19.21949","2316532","Boomba","203312","P","0","CD","Boomba","city, village,...","EQ","DR Congo","populated place","Équateur","0.22516","PPL","Bokoumba","Likouala","Impfondo"
"30","27.19861","218129","Boporuma","203312","P","0","CD","Boporuma","city, village,...","TO","DR Congo","populated place","Tshopo","0.95273","PPL","Bokoumba","Likouala","Impfondo"
"28","19.51818","7504829","Bogbozo","203312","P","0","CD","Bogbozo","city, village,...","SU","DR Congo","populated place","Sud-Ubangi","2.97537","PPL","Bogboko","Likouala","Impfondo"
"28","19.02549","8235280","Bogbolo","203312","P","0","CD","Bogbolo","city, village,...","SU","DR Congo","populated place","Sud-Ubangi","3.02504","PPL","Bogboko","Likouala","Impfondo"
"02","18.11667","2317005","Boboko","203312","P","0","CD","Boboko","city, village,...","EQ","DR Congo","populated place","Équateur","1.33333","PPL","Bogboko","Likouala","Impfondo"
"28","20.16901","218645","Bogbaka","203312","P","0","CD","Bogbaka","city, village,...","SU","DR Congo","populated place","Sud-Ubangi","3.11168","PPL","Bogboko","Likouala","Impfondo"
"30","23.03971","218024","Botoko","203312","P","0","CD","Botoko","city, village,...","TO","DR Congo","populated place","Tshopo","1.684","PPL","Bogboko","Likouala","Impfondo"
"28","19.68474","2316368","Bowagboko","203312","P","0","CD","Bowagboko","city, village,...","SU","DR Congo","populated place","Sud-Ubangi","3.23289","PPL","Bogboko","Likouala","Impfondo"
"02","18.11667","2316535","Bonsoko","203312","P","0","CD","Bonsoko","city, village,...","EQ","DR Congo","populated place","Équateur","1.88333","PPL","Bogboko","Likouala","Impfondo"
"30","25.70813","218635","Bogbode","203312","P","0","CD","Bogbode","city, village,...","TO","DR Congo","populated place","Tshopo","1.69885","PPL","Bogboko","Likouala","Impfondo"
"28","18.67019","8244477","Bogbelo","203312","P","0","CD","Bogbelo","city, village,...","SU","DR Congo","populated place","Sud-Ubangi","2.33725","PPL","Bogboko","Likouala","Impfondo"
"28","20.07732","8235953","Boyagboko","203312","P","0","CD","Boyagboko","city, village,...","SU","DR Congo","populated place","Sud-Ubangi","3.27682","PPL","Bogboko","Likouala","Impfondo"
"26","22.55838","8238575","Bogbamo","203312","P","0","CD","Bogbamo","city, village,...","NU","DR Congo","populated place","Nord-Ubangi","3.64125","PPL","Bogboko","Likouala","Impfondo"
"14","27.80527","10219796","Bomboro","203312","P","0","CD","Bomboro","city, village,...","HK","DR Congo","populated place","Haut-Katanga","-10.88943","PPL","Bogboko","Likouala","Impfondo"
"28","19.51884","2316324","Bozoko Deuxième","203312","P","0","CD","Bozoko Deuxième","city, village,...","SU","DR Congo","populated place","Sud-Ubangi","3.29119","PPL","Bogboko","Likouala","Impfondo"
"02","19.12806","2316607","Bondoko","203312","P","0","CD","Bondoko","city, village,...","EQ","DR Congo","populated place","Équateur","2.06875","PPL","Bogboko","Likouala","Impfondo"
"28","19.1461","2316654","Bomboka","203312","P","0","CD","Bomboka","city, village,...","SU","DR Congo","populated place","Sud-Ubangi","2.98957","PPL","Bogboko","Likouala","Impfondo"
"28","19.01201","2316655","Bomboka","203312","P","0","CD","Bomboka","city, village,...","SU","DR Congo","populated place","Sud-Ubangi","2.84115","PPL","Bogboko","Likouala","Impfondo"
"13","26.86828","218496","Bokoko","203312","P","0","CD","Bokoko","city, village,...","BU","DR Congo","populated place","Bas-Uele","4.86634","PPL","Bogboko","Likouala","Impfondo"
"28","19.55387","2316325","Bozoko","203312","P","0","CD","Bozoko","city, village,...","SU","DR Congo","populated place","Sud-Ubangi","3.28198","PPL","Bogboko","Likouala","Impfondo"
"28","19.1699","7504917","Bombolo","203312","P","0","CD","Bombolo","city, village,...","SU","DR Congo","populated place","Sud-Ubangi","2.27626","PPL","Bogboko","Likouala","Impfondo"
"24","19.06667","2316925","Bohoke","203312","P","0","CD","Bohoke","city, village,...","MN","DR Congo","populated place","Mai-Ndombe","-0.78333","PPL","Bogboko","Likouala","Impfondo"
"02","18.04569","2316308","Buburu","203312","P","0","CD","Buburu","city, village,...","EQ","DR Congo","populated place","Équateur","1.43556","PPL","Boboukou","Likouala","Impfondo"
"02","18.11667","2317005","Boboko","203312","P","0","CD","Boboko","city, village,...","EQ","DR Congo","populated place","Équateur","1.33333","PPL","Boboukou","Likouala","Impfondo"
"12","28.18049","218806","Bisembe","203312","P","0","CD","Bisembe","city, village,...","SK","DR Congo","populated place","South Kivu","-3.19282","PPL","Bissobe","Likouala","Liranga"
"21","24.92235","212855","Kinsansa","203312","P","0","CD","Kinsansa","city, village,...","LO","DR Congo","populated place","Lomami","-6.5558","PPL","Bete-Ntolo","Likouala","Bouanela"
"16","27.59416","219589","Bahgala","203312","P","0","CD","Bahgala","city, village,...","HU","DR Congo","populated place","Haut-Uele","3.83868","PPL","Bangala","Likouala","Liranga"
"02","18.26034","2312895","Mbandaka","203312","P","184185","CD","Mbandaka","city, village,...","EQ","DR Congo","seat of a first-order administrative division","Équateur","0.04865","PPLA","Bangala","Likouala","Liranga"
"16","30.19412","219913","Egbagbala","203312","P","0","CD","Egbagbala","city, village,...","HU","DR Congo","populated place","Haut-Uele","3.69095","PPL","Bangala","Likouala","Liranga"
"22","24.67082","923262","Bangula","203312","P","0","CD","Bangula","city, village,...","LU","DR Congo","populated place","Lualaba","-10.58112","PPL","Bangala","Likouala","Liranga"
"19","16.85","2317375","Bangala","203312","P","0","CD","Bangala","city, village,...","KG","DR Congo","populated place","Kwango","-6.81667","PPL","Bangala","Likouala","Liranga"
"26","20.05902","219588","Bangala","203312","P","0","CD","Bangala","city, village,...","NU","DR Congo","populated place","Nord-Ubangi","4.61346","PPL","Bangala","Likouala","Liranga"
"13","26.01909","8062279","Bangala","203312","P","0","CD","Bangala","city, village,...","BU","DR Congo","populated place","Bas-Uele","2.92906","PPL","Bangala","Likouala","Liranga"
"28","19.20181","2317383","Bangabola","203312","P","0","CD","Bangabola","city, village,...","SU","DR Congo","populated place","Sud-Ubangi","2.4849","PPL","Bangala","Likouala","Liranga"
"23","22.21129","8438907","Banzala","203312","P","0","CD","Banzala","city, village,...","KC","DR Congo","populated place","Kasai-Central","-7.44513","PPL","Bangala","Likouala","Liranga"
"23","22.10688","8328772","Bangila","203312","P","0","CD","Bangila","city, village,...","KC","DR Congo","populated place","Kasai-Central","-5.8985","PPL","Bangala","Likouala","Liranga"
"02","19.14165","2316599","Bongala","203312","P","0","CD","Bongala","city, village,...","EQ","DR Congo","populated place","Équateur","-0.05128","PPL","Bangala","Likouala","Liranga"
"25","22.44333","219627","Bandala","203312","P","0","CD","Bandala","city, village,...","MO","DR Congo","populated place","Mongala","2.22358","PPL","Bangala","Likouala","Liranga"
"30","27.05449","8156850","Bangola","203312","P","0","CD","Bangola","city, village,...","TO","DR Congo","populated place","Tshopo","1.85068","PPL","Bangala","Likouala","Liranga"
"13","26.89484","8025461","Bangara","203312","P","0","CD","Bangara","city, village,...","BU","DR Congo","populated place","Bas-Uele","3.37829","PPL","Bangala","Likouala","Liranga"
"26","20.81986","219599","Banga","203312","P","0","CD","Banga","city, village,...","NU","DR Congo","populated place","Nord-Ubangi","4.12105","PPL","Bangala","Likouala","Liranga"
"28","19.40488","2317373","Bangana","203312","P","0","CD","Bangana","city, village,...","SU","DR Congo","populated place","Sud-Ubangi","2.77393","PPL","Bangala","Likouala","Liranga"
"20","17.9536","2317500","Bagata","203312","P","0","CD","Bagata","city, village,...","KL","DR Congo","populated place","Kwilu","-3.72466","PPL","Bangala","Likouala","Liranga"
"30","25.32784","219654","Banalia","203312","P","0","CD","Banalia","city, village,...","TO","DR Congo","populated place","Tshopo","1.54408","PPL","Bangala","Likouala","Liranga"
"08","12.39929","2317418","Banana","203312","P","0","CD","Banana","city, village,...","BC","DR Congo","populated place","Bas-Congo","-6.00413","PPL","Bangala","Likouala","Liranga"
"20","17.68834","2317320","Banzama","203312","P","0","CD","Banzama","city, village,...","KL","DR Congo","populated place","Kwilu","-4.10406","PPL","Bangala","Likouala","Liranga"
